{
  "1": [
    {
      "PACK_ID1": {
        "id": "PACK_ID1",
        "prod_id": "PROD_ID1",
        "customer": {
          "id": "customer_id",
          "name": "customer name",
          "email": "custmer@gggg.il",
          "address": {
            "street": "Hertzel",
            "number": 10,
            "city": "Tel Aviv",
            "lon": 32.0625439,
            "lat": 34.7699465
          }
        },
        "start_date": 1746907533,
        "eta": "1974-06-21",
        "status": "packed",
        "path": [
          {
            "lon": 32.0263808,
            "lat": 34.02655808
          },
          {
            "lon": 32.0263808,
            "lat": 34.02655808
          }
        ]
      }
    },
    {
      "PACK_ID2": {
        "id": "PACK_ID2",
        "prod_id": "PROD_ID2",
        "customer": {
          "id": "customer_id2",
          "name": "customer name2",
          "email": "custmer2@gggg.il",
          "address": {
            "street": "Hertzel",
            "number": 10,
            "city": "Tel Aviv",
            "lon": 32.0625439,
            "lat": 34.7699465
          }
        },
        "start_date": 1746907533,
        "eta": "2025-05-30",
        "status": "packed ",
        "path": [
          {
            "lon": 32.0263808,
            "lat": 34.02655808
          },
          {
            "lon": 32.0263808,
            "lat": 34.02655808
          }
        ]
      }
    },
    {
      "4a839285-b94e-4c0b-aedd-4d54cba34122": {
        "prod_id": "123",
        "customer": {
          "id": "123",
          "name": "123",
          "email": "saeednors04@gmail.com",
          "address": {
            "street": "tel aviv",
            "number": 4,
            "city": "rothschild boulevard ",
            "lat": 32.0626479,
            "lon": 34.769427
          }
        },
        "start_date": 1748563200000,
        "eta": 1748649600000,
        "status": "packed",
        "companyId": 1,
        "id": "4a839285-b94e-4c0b-aedd-4d54cba34122"
      }
    },
    {
      "55364edb-dfa5-4f67-9bd2-e3b0fa9a6ed0": {
        "prod_id": "123",
        "customer": {
          "id": "123",
          "name": "123",
          "email": "saaedasle1@gmail.com",
          "address": {
            "street": "tel aviv",
            "number": 1,
            "city": "rothschild boulevard ",
            "lat": 32.0631559,
            "lon": 34.7688262
          }
        },
        "start_date": 1748563200000,
        "eta": 1748649600000,
        "status": "packed",
        "companyId": 1,
        "id": "55364edb-dfa5-4f67-9bd2-e3b0fa9a6ed0"
      }
    }
  ],
  "2": [
    {
      "PACK_ID1": {
        "id": "PACK_ID1",
        "prod_id": "PROD_ID1",
        "customer": {
          "id": "customer_id",
          "name": "customer name",
          "email": "custmer@gggg.il",
          "address": {
            "street": "Hertzel",
            "number": 10,
            "city": "Tel Aviv",
            "lon": 32.0625439,
            "lat": 34.7699465
          }
        },
        "start_date": 1746907533,
        "eta": 1747771531,
        "status": "packed",
        "path": [
          {
            "lon": 32.0263808,
            "lat": 34.02655808
          },
          {
            "lon": 32.0263808,
            "lat": 34.02655808
          },
          {
            "lat": 32.0852997,
            "lon": 34.7818064
          },
          {
            "lat": 29.5569348,
            "lon": 34.9497949
          }
        ]
      }
    },
    {
      "PACK_ID2": {
        "id": "PACK_ID2",
        "prod_id": "PROD_ID2",
        "customer": {
          "id": "customer_id2",
          "name": "customer name2",
          "email": "custmer2@gggg.il",
          "address": {
            "street": "Hertzel",
            "number": 10,
            "city": "Tel Aviv",
            "lon": 32.0625439,
            "lat": 34.7699465
          }
        },
        "start_date": 1746907533,
        "eta": 1747771531,
        "status": "packed ",
        "path": [
          {
            "lon": 32.0263808,
            "lat": 34.02655808
          },
          {
            "lon": 32.0263808,
            "lat": 34.02655808
          },
          {
            "lat": 29.5569348,
            "lon": 34.9497949
          },
          {
            "lat": 32.0852997,
            "lon": 34.7818064
          }
        ]
      }
    },
    {
      "b90fbf3e-b0d5-40b2-aa83-847ca03c2eaf": {
        "prod_id": "123",
        "customer": {
          "id": "123",
          "name": "123",
          "email": "aslesaeed8@gmail.com",
          "address": {
            "street": "tel aviv",
            "number": 2,
            "city": "rothschild boulevard ",
            "lat": 32.063357,
            "lon": 34.772939
          }
        },
        "start_date": 1748563200000,
        "eta": "5555-05-21",
        "status": "packed",
        "companyId": 2,
        "id": "b90fbf3e-b0d5-40b2-aa83-847ca03c2eaf",
        "path": [
          {
            "lat": 32.0852997,
            "lon": 34.7818064
          }
        ]
      }
    },
    {
      "72e0c3cf-52b2-438c-9a15-0ef29c5a5688": {
        "prod_id": "123",
        "customer": {
          "id": "123",
          "name": "123",
          "email": "doora@gmail.com",
          "address": {
            "street": "tel aviv",
            "number": 4,
            "city": "rothschild boulevard ",
            "lat": 32.0626479,
            "lon": 34.769427
          }
        },
        "start_date": 1748563200000,
        "eta": "2025-05-15",
        "status": "packed",
        "companyId": 2,
        "id": "72e0c3cf-52b2-438c-9a15-0ef29c5a5688",
        "path": [
          {
            "lat": 32.0852997,
            "lon": 34.7818064
          }
        ]
      }
    },
    {
      "23275165-b5ad-4b1b-bb70-151db7d4e86b": {
        "prod_id": "123",
        "customer": {
          "id": "123",
          "name": "123",
          "email": "aslesaeed8@gmail.com",
          "address": {
            "street": "tel aviv",
            "number": 3,
            "city": "rothschild boulevard ",
            "lat": 32.0638448,
            "lon": 34.7744913
          }
        },
        "start_date": 1744243200000,
        "eta": 1748563200000,
        "status": "packed",
        "companyId": 2,
        "id": "23275165-b5ad-4b1b-bb70-151db7d4e86b",
        "path": [
          {
            "lat": 32.0852997,
            "lon": 34.7818064
          }
        ]
      }
    }
  ]
}