{
  "1": [
    {
      "PACK_ID1": {
        "id": "PACK_ID1",
        "prod_id": "PROD_ID1",
        "customer": {
          "id": "customer_id",
          "name": "customer name",
          "email": "custmer@gggg.il",
          "address": {
            "street": "Hertzel",
            "number": 10,
            "city": "Tel Aviv",
            "lon": 32.0625439,
            "lat": 34.7699465
          }
        },
        "start_date": 1746907533,
        "eta": "1974-06-21",
        "status": "packed",
        "path": [
          {
            "lon": 32.0263808,
            "lat": 34.02655808
          },
          {
            "lon": 32.0263808,
            "lat": 34.02655808
          }
        ]
      }
    },
    {
      "PACK_ID2": {
        "id": "PACK_ID2",
        "prod_id": "PROD_ID2",
        "customer": {
          "id": "customer_id2",
          "name": "customer name2",
          "email": "custmer2@gggg.il",
          "address": {
            "street": "Hertzel",
            "number": 10,
            "city": "Tel Aviv",
            "lon": 32.0625439,
            "lat": 34.7699465
          }
        },
        "start_date": 1746907533,
        "eta": "2025-05-30",
        "status": "packed ",
        "path": [
          {
            "lon": 32.0263808,
            "lat": 34.02655808
          },
          {
            "lon": 32.0263808,
            "lat": 34.02655808
          }
        ]
      }
    }
  ],
  "2": [
    {
      "PACK_ID1": {
        "id": "PACK_ID1",
        "prod_id": "PROD_ID1",
        "customer": {
          "id": "customer_id",
          "name": "customer name",
          "email": "custmer@gggg.il",
          "address": {
            "street": "Hertzel",
            "number": 10,
            "city": "Tel Aviv",
            "lon": 32.0625439,
            "lat": 34.7699465
          }
        },
        "start_date": 1746907533,
        "eta": 1747771531,
        "status": "packed",
        "path": [
          {
            "lon": 32.0263808,
            "lat": 34.02655808
          },
          {
            "lon": 32.0263808,
            "lat": 34.02655808
          },
          {
            "lat": 32.0852997,
            "lon": 34.7818064
          },
          {
            "lat": 29.5569348,
            "lon": 34.9497949
          },
          {
            "lat": 32.8486259,
            "lon": 35.3358268
          }
        ]
      }
    },
    {
      "PACK_ID2": {
        "id": "PACK_ID2",
        "prod_id": "PROD_ID2",
        "customer": {
          "id": "customer_id2",
          "name": "customer name2",
          "email": "custmer2@gggg.il",
          "address": {
            "street": "Hertzel",
            "number": 10,
            "city": "Tel Aviv",
            "lon": 32.0625439,
            "lat": 34.7699465
          }
        },
        "start_date": 1746907533,
        "eta": 1747771531,
        "status": "packed ",
        "path": [
          {
            "lon": 32.0263808,
            "lat": 34.02655808
          },
          {
            "lon": 32.0263808,
            "lat": 34.02655808
          },
          {
            "lat": 29.5569348,
            "lon": 34.9497949
          },
          {
            "lat": 32.0852997,
            "lon": 34.7818064
          }
        ]
      }
    }
  ],
  "10": [
    {
      "e2NGZt9oSP": {
        "status": "intransit",
        "eta": 1750280400000,
        "start_date": 1748995200000,
        "customer": {
          "id": "123",
          "name": "123",
          "email": "saaedasle1@gmail.com",
          "address": {
            "street": "tel aviv",
            "number": 2,
            "city": "rothschild boulevard ",
            "lat": 32.063357,
            "lon": 34.772939
          }
        },
        "name": "s",
        "prod_id": "123",
        "companyId": 10,
        "id": "e2NGZt9oSP",
        "path": []
      }
    },
    {
      "xaJ0NFEodL": {
        "status": "shipped",
        "eta": 1750798800000,
        "start_date": 1748995200000,
        "customer": {
          "id": "123",
          "name": "123",
          "email": "dora@gmail.com",
          "address": {
            "street": "tel aviv",
            "number": 1,
            "city": "rothschild boulevard ",
            "lat": 32.0631559,
            "lon": 34.7688262
          }
        },
        "name": "s",
        "prod_id": "sss",
        "companyId": 10,
        "id": "xaJ0NFEodL",
        "path": []
      }
    }
  ]
}