{
  "1": [
    {
      "Tmr736FULA": {
        "id": "Tmr736FULA",
        "name": "saeed",
        "prod_id": "saeed",
        "customer": {
          "id": "saeed",
          "name": "saeed",
          "email": "saaedasle1@gmail.com",
          "address": {
            "street": "tel aviv",
            "number": 1,
            "city": "rothschild boulevard ",
            "lat": 32.0631559,
            "lon": 34.7688262
          }
        },
        "start_date": 1749254400,
        "eta": 1749254400,
        "status": "packed",
        "path": [
          {
            "lat": 32.0852997,
            "lon": 34.7818064
          }
        ]
      }
    },
    {
      "PACK_ID1": {
        "id": "PACK_ID1",
        "name": "dress",
        "prod_id": "PROD_ID1",
        "customer": {
          "id": "customer_id",
          "name": "customer name",
          "email": "custmer@gggg.il",
          "address": {
            "street": "Hertzel",
            "number": 10,
            "city": "Tel Aviv",
            "lon": 32.0625439,
            "lat": 34.7699465
          }
        },
        "start_date": 1746907533,
        "eta": 1747785600,
        "status": "shipped",
        "path": [
          {
            "lon": 32.0263808,
            "lat": 34.02655808
          },
          {
            "lon": 32.0263808,
            "lat": 34.02655808
          }
        ]
      }
    },
    {
      "PACK_ID2": {
        "id": "PACK_ID2",
        "name": "iphone",
        "prod_id": "PROD_ID2",
        "customer": {
          "id": "customer_id2",
          "name": "customer name2",
          "email": "custmer2@gggg.il",
          "address": {
            "street": "Hertzel",
            "number": 10,
            "city": "Tel Aviv",
            "lon": 32.0625439,
            "lat": 34.7699465
          }
        },
        "start_date": 1746907533,
        "eta": 1747771531,
        "status": "packed ",
        "path": [
          {
            "lon": 32.0263808,
            "lat": 34.02655808
          },
          {
            "lon": 32.0263808,
            "lat": 34.02655808
          }
        ]
      }
    },
    {
      "Xd0IDeIWRp": {
        "id": "Xd0IDeIWRp",
        "name": "microwave",
        "prod_id": "PROD_ID1",
        "customer": {
          "id": "1111111",
          "name": "Alon Lev",
          "email": "alon111@gmail.com",
          "address": {
            "street": "Hertzel",
            "number": 10,
            "city": "Tel Aviv",
            "lon": 34.7699465,
            "lat": 32.0625439
          }
        },
        "start_date": 1746907533,
        "eta": 1747771531,
        "status": "packed",
        "path": [
          {
            "lat": 34.02655808,
            "lon": 32.0263808
          }
        ]
      }
    },
    {
      "P4nAAKJCGf": {
        "id": "P4nAAKJCGf",
        "name": "microwave",
        "prod_id": "PROD_ID1",
        "customer": {
          "id": "1111111",
          "name": "Alon Lev",
          "email": "alon111@gmail.com",
          "address": {
            "street": "Hertzel",
            "number": 10,
            "city": "Tel Aviv",
            "lon": 34.7699465,
            "lat": 32.0625439
          }
        },
        "start_date": 1746907533,
        "eta": 1747771531,
        "status": "packed",
        "path": [
          {
            "lat": 34.02655808,
            "lon": 32.0263808
          }
        ]
      }
    },
    {
      "w44HIm0Vpz": {
        "id": "w44HIm0Vpz",
        "name": "microwave",
        "prod_id": "PROD_ID1",
        "customer": {
          "id": "1111111",
          "name": "Alon Lev",
          "email": "alon111@gmail.com",
          "address": {
            "street": "Hertzel",
            "number": 10,
            "city": "Tel Aviv",
            "lon": 34.7699465,
            "lat": 32.0625439
          }
        },
        "start_date": 1746907533,
        "eta": 1747771531,
        "status": "packed",
        "path": [
          {
            "lat": 34.02655808,
            "lon": 32.0263808
          }
        ]
      }
    }
  ],
  "2": [
    {
      "PACK_ID1": {
        "id": "PACK_ID1",
        "name": "microwave",
        "prod_id": "PROD_ID1",
        "customer": {
          "id": "customer_id",
          "name": "customer name",
          "email": "custmer@gggg.il",
          "address": {
            "street": "Hertzel",
            "number": 10,
            "city": "Tel Aviv",
            "lon": 32.0625439,
            "lat": 34.7699465
          }
        },
        "start_date": 1746907533,
        "eta": 1747771531,
        "status": "packed",
        "path": [
          {
            "lon": 32.0263808,
            "lat": 34.02655808
          },
          {
            "lon": 32.0263808,
            "lat": 34.02655808
          }
        ]
      }
    },
    {
      "PACK_ID2": {
        "id": "PACK_ID2",
        "name": "white Tshirt",
        "prod_id": "PROD_ID2",
        "customer": {
          "id": "customer_id2",
          "name": "customer name2",
          "email": "custmer2@gggg.il",
          "address": {
            "street": "Hertzel",
            "number": 10,
            "city": "Tel Aviv",
            "lon": 32.0625439,
            "lat": 34.7699465
          }
        },
        "start_date": 1746907533,
        "eta": 1747771531,
        "status": "packed ",
        "path": [
          {
            "lon": 32.0263808,
            "lat": 34.02655808
          },
          {
            "lon": 32.0263808,
            "lat": 34.02655808
          }
        ]
      }
    },
    {
      "HZpMOSzqXr": {
        "id": "HZpMOSzqXr",
        "name": "saeed",
        "prod_id": "PROD_TEST1",
        "customer": {
          "id": "cust_12345",
          "name": "saeed",
          "email": "saeed@example.com",
          "address": {
            "street": "Dizengoff",
            "number": 88,
            "city": "Tel Aviv",
            "lon": 34.7812833,
            "lat": 32.0835736
          }
        },
        "start_date": 1746907533,
        "eta": 1747771531,
        "status": "packed",
        "path": []
      }
    },
    {
      "1Xf-cJqqoi": {
        "id": "1Xf-cJqqoi",
        "name": "saeed",
        "prod_id": "PROD_TEST1",
        "customer": {
          "id": "cust_12345",
          "name": "saeed",
          "email": "saeed@example.com",
          "address": {
            "street": "Dizengoff",
            "number": 88,
            "city": "Tel Aviv",
            "lon": 34.7812833,
            "lat": 32.0835736
          }
        },
        "start_date": 1746907533,
        "eta": 1747771531,
        "status": "packed",
        "path": []
      }
    }
  ]
}